{
	"900484800": {
		"id": 900484800,
		"name": "Sushi by H",
		"image": {
			"Src": "assets/images/90048480.jpg",
			"title": "Exterior Image of Sushi by H"
		},
		"address": {
			"street1": "480 S San Vicente Blvd",
			"street2": "",
			"street3": "",
			"unit": "",
			"city": "Los Angeles",
			"state": "CA",
			"zip": "90048"
		},
		"cuisine": "Japanese",
		"hours": [
			{
				"open": 690,
				"close": 870
			},
			{
				"open": 1050,
				"close": 1320
			}
		],
		"rating": 4.3,
		"noOfReviews": 145,
		"reviews": [
			"900484800SWFuIE1jQWxsaXN0ZXI=7028"
		]
	},
	"941098000": {
		"id": 941098000,
		"name": "Restaurant Gary Danko",
		"image": {
			"Src": "",
			"title": ""
		},
		"address": {
			"street1": "800 North Point St",
			"street2": "",
			"street3": "",
			"unit": "",
			"city": "San Francisco",
			"state": "CA",
			"zip": "94109"
		},
		"cuisine": "French",
		"hours": [
			{
				"open": 1050,
				"close": 1320
			}
		],
		"rating": null,
		"noOfReviews": 0,
		"reviews": []
	},
	"9004674080": {
		"id": 9004674080,
		"name": "El Compadre Restaurant",
		"image": {
			"Src": "assets/images/900467408.jpg",
			"title": "Exterior Image of El Compadre"
		},
		"address": {
			"street1": "7408 Sunset Blvd",
			"street2": "",
			"street3": "",
			"unit": "",
			"city": "Los Angeles",
			"state": "CA",
			"zip": "90046"
		},
		"cuisine": "Mexican",
		"hours": [
			{
				"open": 690,
				"close": 1560
			}
		],
		"rating": 4.5,
		"noOfReviews": 300,
		"reviews": [
			"9004674080SWFuIE1jQWxsaXN0ZXI=7752"
		]
	},
	"9002816080": {
		"id": 9002816080,
		"name": "Kitchen 24",
		"image": {
			"Src": "assets/images/900281608.jpg",
			"title": "Interior Image of Kitchen 24"
		},
		"address": {
			"street1": "1608 N Cahuenga Blvd",
			"street2": "",
			"street3": "",
			"unit": "",
			"city": "Los Angeles",
			"state": "CA",
			"zip": "90028"
		},
		"cuisine": "Breakfast",
		"hours": [
			{
				"always": true,
				"message": "24 Hours"
			}
		],
		"rating": 4.1,
		"noOfReviews": 90,
		"reviews": [
			"9002816080SWFuIE1jQWxsaXN0ZXI=7844"
		]
	},
	"9003671680": {
		"id": 9003671680,
		"name": "Bulan Thai Vegetarian Kitchen",
		"image": {
			"Src": "assets/images/900367168.png",
			"title": "Exterior Image of Bulan Thai"
		},
		"address": {
			"street1": "7168 Melrose Ave",
			"street2": "",
			"street3": "",
			"unit": "",
			"city": "Los Angeles",
			"state": "CA",
			"zip": "90036"
		},
		"cuisine": "Thai",
		"hours": [
			{
				"open": 690,
				"close": 930
			},
			{
				"open": 1020,
				"close": 1320
			}
		],
		"rating": "4.08",
		"noOfReviews": 12,
		"reviews": [
			"9003671680SWFuIE1jQWxsaXN0ZXI=7904",
			"OTAwMzY3MTY4MDE0NjU4NTk0MzkwMDBTaGVsYnlZb3VuZw==",
			"OTAwMzY3MTY4MDE0NjU4NjA0OTYwMDBBc2hsZWVZb3VuZw==",
			"OTAwMzY3MTY4MDE0NjU4NjA5NzAwMDBDbGFya2VNY0FsbGlzdGVy",
			"OTAwMzY3MTY4MDE0NjU4NjExOTcwMDBHYWJyaWVsT2xzb24=",
			"OTAwMzY3MTY4MDE0NjU4NjE1MTgwMDBXYWx0ZXJCYWxr",
			"OTAwMzY3MTY4MDE0NjU4NjE3MDMwMDBNZWxpc3NhWW91bmc=",
			"OTAwMzY3MTY4MDE0NjU4NjE4OTYwMDBNYXJrSmFjb2Jzb24=",
			"OTAwMzY3MTY4MDE0NjU4NjIwNTUwMDBWaWN0b3JpYUZveA==",
			"OTAwMzY3MTY4MDE0NjU4NjIyMDQwMDBEYXZpZENyYWJ0cmVl",
			"OTAwMzY3MTY4MDE0NjU4NjIzMDkwMDBDb2J5QnJ5YW50",
			"OTAwMzY3MTY4MDE0NjU4NjI0MDUwMDBTaXJpS2hhbHNh",
			"OTAwMzY3MTY4MDE0NjU4NjMyNTMwMDBKdWxlc0hhcnQ="
		]
	}
}