{
	"900484800":{
		"id":900484800,
		"name": "Sushi by H",
		"imageSrc": "assets/images/90048480.jpg",
		"address": {
			"street1": "480 S San Vicente Blvd",
			"street2": "",
			"street3": "",
			"unit": "",
			"city": "Los Angeles",
			"state": "CA",
			"zip": "90048"
		},
		"cuisine": "Japanese",
		"hours": {
			"opens": [690, 1050],
			"closes": [870, 1320]
		},
		"rating": 4.5,
		"noOfReviews": 145,
		"reviews": {
			"09191983": {
				"name": "Ian McAllister",
				"date": "19284875382",
				"rating": 5,
				"comments": "This is the best sushi I have ever tasted!!! We'll definitely be back."
			}
		}
	},
	"9004674080":{
		"id": 9004674080,
		"name": "El Compadre Restaurant",
		"imageSrc": "assets/images/900467408.jpg",
		"address": {
			"street1": "7408 Sunset Blvd",
			"street2": "",
			"street3": "",
			"unit": "",
			"city": "Los Angeles",
			"state": "CA",
			"zip": "90046"
		},
		"cuisine": "Mexican",
		"hours": {
			"opens": [690],
			"closes": [1560]
		},
		"rating": 4.5,
		"noOfReviews": 300,
		"reviews": {
			"09191983": {
				"name": "Ian McAllister",
				"date": "19284875382",
				"rating": 5,
				"comments": "This is the best sushi I have ever tasted!!! We'll definitely be back."
			}
		}
	},
	"9002816080":{
		"id": 9002816080,
		"name": "Kitchen 24",
		"imageSrc": "assets/images/900281608.jpg",
		"address": {
			"street1": "1608 N Cahuenga Blvd",
			"street2": "",
			"street3": "",
			"unit": "",
			"city": "Los Angeles",
			"state": "CA",
			"zip": "90028"
		},
		"cuisine": "Breakfast",
		"hours": {
			"opens": [0],
			"closes": [1440]
		},
		"rating": 4.1,
		"noOfReviews": 90,
		"reviews": {
			"09191983": {
				"name": "Ian McAllister",
				"date": "19284875382",
				"rating": 5,
				"comments": "This is the best sushi I have ever tasted!!! We'll definitely be back."
			}
		}
	},
	"9003671680":{
		"id": 9003671680,
		"name": "Bulan Thai Vegetarian Kitchen",
		"imageSrc": "assets/images/900367168.png",
		"address": {
			"street1": "7168 Melrose Ave",
			"street2": "",
			"street3": "",
			"unit": "",
			"city": "Los Angeles",
			"state": "CA",
			"zip": "90036"
		},
		"cuisine": "Thai",
		"hours": {
			"opens": [690, 1020],
			"closes": [930, 1320]
		},
		"rating": 4.2,
		"noOfReviews": 190,
		"reviews": {
			"09191983": {
				"name": "Ian McAllister",
				"date": "19284875382",
				"rating": 5,
				"comments": "This is the best sushi I have ever tasted!!! We'll definitely be back."
			}
		}
	}
}
